{
	"found_places": [
		{
			"type": "food",
			"name": "Starbucks",
			"address": "235 Medical Park Road, Mooresville",
			"position": {
				"lat": 35.55400050000001,
				"long": -80.8542522
			},
			"hours": []
		},
		{
			"type": "food",
			"name": "Black Powder Roasting Company",
			"address": "256 Raceway Drive #10, Mooresville",
			"position": {
				"lat": 35.586219,
				"long": -80.864471
			},
			"hours": []
		},
		{
			"type": "food",
			"name": "Dunkin' Donuts",
			"address": "651 River Highway, Mooresville",
			"position": {
				"lat": 35.5955786,
				"long": -80.87615629999999
			},
			"hours": []
		},
		{
			"type": "food",
			"name": "Human Bean",
			"address": "356 Williamson Road, Mooresville",
			"position": {
				"lat": 35.58170199999999,
				"long": -80.8736179
			},
			"hours": []
		},
		{
			"type": "food",
			"name": "Sun Up Cafe",
			"address": "120 Langtree Village Drive, Suite 106-107, Mooresville",
			"position": {
				"lat": 35.527917,
				"long": -80.866558
			},
			"hours": []
		},
		{
			"type": "food",
			"name": "Starbucks",
			"address": "489 River Highway, Mooresville",
			"position": {
				"lat": 35.5940723,
				"long": -80.8645956
			},
			"hours": []
		},
		{
			"type": "food",
			"name": "Starbucks",
			"address": "594 River Highway, Mooresville",
			"position": {
				"lat": 35.5983171,
				"long": -80.87196039999999
			},
			"hours": []
		},
		{
			"type": "food",
			"name": "Starbucks",
			"address": "134 Town Center Drive, Mooresville",
			"position": {
				"lat": 35.5855575,
				"long": -80.8759724
			},
			"hours": []
		},
		{
			"type": "food",
			"name": "Starbucks",
			"address": "118 Argus Lane, Mooresville",
			"position": {
				"lat": 35.6030351,
				"long": -80.8950014
			},
			"hours": []
		},
		{
			"type": "food",
			"name": "Dunkin' Donuts",
			"address": "842 Williamson Road, Mooresville",
			"position": {
				"lat": 35.555244,
				"long": -80.8613213
			},
			"hours": []
		},
		{
			"type": "food",
			"name": "Caribou Coffee",
			"address": "690 Bluefield Road, Mooresville",
			"position": {
				"lat": 35.596492,
				"long": -80.86864849999999
			},
			"hours": []
		},
		{
			"type": "food",
			"name": "Three Goats Coffee House",
			"address": "Mooresville",
			"position": {
				"lat": 35.6027376,
				"long": -80.8951156
			},
			"hours": []
		}
	]
}